[
  {
    "City": "Chicago",
    "Includes": "Includes Evanston, Aurora, Joliet, Elgin, Naperville",
    "latitude": 41.928881,
    "longitude": -87.81381,
    "State": "Illinois",
    "Rakings": 1,
    "Altered Radius": 17.7,
    "Fillkey": "green"
  },
  {
    "City": "Minneapolis",
    "Includes": "Includes Saint Paul",
    "latitude": 44.979265,
    "longitude": -93.273024,
    "State": "Minnesota",
    "Rakings": 2,
    "Altered Radius": 17.3,
    "Fillkey": "green"
  },
  {
    "City": "Pittsburgh",
    "Includes": "Includes Elkhart",
    "latitude": 40.434436,
    "longitude": -80.024817,
    "State": "Pennsylvania",
    "Rakings": 3,
    "Altered Radius": 17,
    "Fillkey": "green"
  },
  {
    "City": "Cincinnati",
    "Includes": "Includes Covington, KY",
    "latitude": 39.166759,
    "longitude": -84.53822,
    "State": "Ohio",
    "Rakings": 4,
    "Altered Radius": 16.7,
    "Fillkey": "green"
  },
  {
    "City": "Cleveland",
    "Includes": "Includes Akron",
    "latitude": 41.523401,
    "longitude": -81.599648,
    "State": "Ohio",
    "Rakings": 5,
    "Altered Radius": 16.3,
    "Fillkey": "green"
  },
  {
    "City": "St. Louis",
    "Includes": 0,
    "latitude": 38.631501,
    "longitude": -90.19231,
    "State": "Missouri",
    "Rakings": 6,
    "Altered Radius": 16,
    "Fillkey": "green"
  },
  {
    "City": "Columbus",
    "Includes": 0,
    "latitude": 40.040113,
    "longitude": -82.897222,
    "State": "Ohio",
    "Rakings": 7,
    "Altered Radius": 15.7,
    "Fillkey": "green"
  },
  {
    "City": "Indianapolis",
    "Includes": "Includes Fishers, Carmel, Noblesville, Westfield, Zionsville",
    "latitude": 39.775092,
    "longitude": -86.13216,
    "State": "Indiana",
    "Rakings": 8,
    "Altered Radius": 15.3,
    "Fillkey": "green"
  },
  {
    "City": "Madison",
    "Includes": 0,
    "latitude": 43.06956,
    "longitude": -89.423861,
    "State": "Wisconsin",
    "Rakings": 9,
    "Altered Radius": 15,
    "Fillkey": "green"
  },
  {
    "City": "Milwaukee",
    "Includes": 0,
    "latitude": 43.011264,
    "longitude": -87.958409,
    "State": "Wisconsin",
    "Rakings": 10,
    "Altered Radius": 14.7,
    "Fillkey": "green"
  },
  {
    "City": "Ann Arbor",
    "Includes": 0,
    "latitude": 42.266638,
    "longitude": -83.849042,
    "State": "Michigan",
    "Rakings": 11,
    "Altered Radius": 14.3,
    "Fillkey": "blue"
  },
  {
    "City": "Kansas City",
    "Includes": "Includes Olathe, Kansas City, Independence, Overland Park",
    "latitude": 39.102404,
    "longitude": -94.598583,
    "State": "Missouri",
    "Rakings": 12,
    "Altered Radius": 14,
    "Fillkey": "blue"
  },
  {
    "City": "Omaha",
    "Includes": 0,
    "latitude": 41.291736,
    "longitude": -96.171104,
    "State": "Nebraska",
    "Rakings": 13,
    "Altered Radius": 13.7,
    "Fillkey": "blue"
  },
  {
    "City": "Detroit",
    "Includes": "Includes Warren, Sterling Heights, Troy and Livonia",
    "latitude": 42.239933,
    "longitude": -83.150823,
    "State": "Michigan",
    "Rakings": 14,
    "Altered Radius": 13.3,
    "Fillkey": "blue"
  },
  {
    "City": "Louisvillle",
    "Includes": 0,
    "latitude": 38.188962,
    "longitude": -85.676819,
    "State": "Kentucky",
    "Rakings": 15,
    "Altered Radius": 13,
    "Fillkey": "blue"
  },
  {
    "City": "Champaign",
    "Includes": "Includes Urbana",
    "latitude": 40.101777,
    "longitude": -88.197166,
    "State": "Illinois",
    "Rakings": 16,
    "Altered Radius": 12.7,
    "Fillkey": "blue"
  },
  {
    "City": "Grand Rapids",
    "Includes": 0,
    "latitude": 42.984226,
    "longitude": -85.629101,
    "State": "Michigan",
    "Rakings": 17,
    "Altered Radius": 12.3,
    "Fillkey": "blue"
  },
  {
    "City": "Lincoln",
    "Includes": 0,
    "latitude": 40.865142,
    "longitude": -96.823133,
    "State": "Nebraska",
    "Rakings": 18,
    "Altered Radius": 12,
    "Fillkey": "blue"
  },
  {
    "City": "Lexington",
    "Includes": 0,
    "latitude": 38.016674,
    "longitude": -84.486043,
    "State": "Kentucky",
    "Rakings": 19,
    "Altered Radius": 11.7,
    "Fillkey": "blue"
  },
  {
    "City": "Lafayette",
    "Includes": "Includes West Lafayette",
    "latitude": 40.39905,
    "longitude": -86.830286,
    "State": "Indiana",
    "Rakings": 20,
    "Altered Radius": 11.3,
    "Fillkey": "blue"
  },
  {
    "City": "Dayton",
    "Includes": 0,
    "latitude": 39.750471,
    "longitude": -84.268593,
    "State": "Ohio",
    "Rakings": 21,
    "Altered Radius": 11,
    "Fillkey": "blue"
  },
  {
    "City": "Fargo",
    "Includes": 0,
    "latitude": 46.92536,
    "longitude": -96.990615,
    "State": "North Dakota",
    "Rakings": 22,
    "Altered Radius": 10.7,
    "Fillkey": "blue"
  },
  {
    "City": "South Bend",
    "Includes": "Includes Elkhart",
    "latitude": 41.673383,
    "longitude": -86.251654,
    "State": "Indiana",
    "Rakings": 23,
    "Altered Radius": 10.3,
    "Fillkey": "blue"
  },
  {
    "City": "Bloomington",
    "Includes": 0,
    "latitude": 40.462041,
    "longitude": -88.850396,
    "State": "Indiana",
    "Rakings": 24,
    "Altered Radius": 10,
    "Fillkey": "blue"
  },
  {
    "City": "Wichita",
    "Includes": 0,
    "latitude": 37.651974,
    "longitude": -97.258997,
    "State": "Kansas",
    "Rakings": 25,
    "Altered Radius": 9.7,
    "Fillkey": "blue"
  },
  {
    "City": "Des Moines",
    "Includes": 0,
    "latitude": 41.672687,
    "longitude": -93.572173,
    "State": "Iowa",
    "Rakings": 26,
    "Altered Radius": 9.3,
    "Fillkey": "purple"
  },
  {
    "City": "Iowa City",
    "Includes": 0,
    "latitude": 41.648207,
    "longitude": -91.541579,
    "State": "Iowa",
    "Rakings": 27,
    "Altered Radius": 9,
    "Fillkey": "purple"
  },
  {
    "City": "Fort Wayne",
    "Includes": 0,
    "latitude": 41.093763,
    "longitude": -85.070713,
    "State": "Indiana",
    "Rakings": 28,
    "Altered Radius": 8.7,
    "Fillkey": "purple"
  },
  {
    "City": "Athens",
    "Includes": 0,
    "latitude": 39.339279,
    "longitude": -82.013803,
    "State": "Ohio",
    "Rakings": 29,
    "Altered Radius": 8.3,
    "Fillkey": "purple"
  },
  {
    "City": "State College",
    "Includes": 0,
    "latitude": 40.881935,
    "longitude": -77.867822,
    "State": "Pennsylvania",
    "Rakings": 30,
    "Altered Radius": 8,
    "Fillkey": "purple"
  },
  {
    "City": "Lansing",
    "Includes": "Includes East Lansing",
    "latitude": 42.599184,
    "longitude": -84.371973,
    "State": "Michigan",
    "Rakings": 31,
    "Altered Radius": 7.7,
    "Fillkey": "purple"
  },
  {
    "City": "Ames",
    "Includes": 0,
    "latitude": 42.037879,
    "longitude": -93.600254,
    "State": "Iowa",
    "Rakings": 32,
    "Altered Radius": 7.3,
    "Fillkey": "purple"
  },
  {
    "City": "Evansville",
    "Includes": 0,
    "latitude": 37.997128,
    "longitude": -87.574963,
    "State": "Indiana",
    "Rakings": 33,
    "Altered Radius": 7,
    "Fillkey": "purple"
  },
  {
    "City": "Duluth",
    "Includes": 0,
    "latitude": 47.005566,
    "longitude": -92.001934,
    "State": "Minesota",
    "Rakings": 34,
    "Altered Radius": 6.7,
    "Fillkey": "purple"
  },
  {
    "City": "Green Bay",
    "Includes": 0,
    "latitude": 44.494385,
    "longitude": -87.976051,
    "State": "Wisconsin",
    "Rakings": 35,
    "Altered Radius": 6.3,
    "Fillkey": "purple"
  },
  {
    "City": "Columbia",
    "Includes": 0,
    "latitude": 38.894165,
    "longitude": -92.274145,
    "State": "Missouri",
    "Rakings": 36,
    "Altered Radius": 6,
    "Fillkey": "purple"
  },
  {
    "City": "Eau Claire",
    "Includes": 0,
    "latitude": 44.75653,
    "longitude": -91.473097,
    "State": "Wisconsin",
    "Rakings": 37,
    "Altered Radius": 5.7,
    "Fillkey": "purple"
  },
  {
    "City": "Springfield",
    "Includes": 0,
    "latitude": 39.820839,
    "longitude": -89.598978,
    "State": "Missouri",
    "Rakings": 38,
    "Altered Radius": 5.3,
    "Fillkey": "purple"
  },
  {
    "City": "Erie",
    "Includes": 0,
    "latitude": 42.087337,
    "longitude": -80.087341,
    "State": "Pennsylvania",
    "Rakings": 39,
    "Altered Radius": 5,
    "Fillkey": "purple"
  },
  {
    "City": "Youngstown",
    "Includes": 0,
    "latitude": 41.017082,
    "longitude": -80.802854,
    "State": "Ohio",
    "Rakings": 40,
    "Altered Radius": 5,
    "Fillkey": "purple"
  },
  {
    "City": "Toledo",
    "Includes": 0,
    "latitude": 41.720684,
    "longitude": -83.569359,
    "State": "Ohio",
    "Rakings": 41,
    "Altered Radius": 5,
    "Fillkey": "purple"
  },
  {
    "City": "Bloomington",
    "Includes": "Includes Normal",
    "latitude": 39.07881,
    "longitude": -86.435094,
    "State": "Illinois",
    "Rakings": 42,
    "Altered Radius": 5,
    "Fillkey": "purple"
  },
  {
    "City": "Rochester",
    "Includes": 0,
    "latitude": 44.075285,
    "longitude": -92.516916,
    "State": "Minnesota",
    "Rakings": 43,
    "Altered Radius": 5,
    "Fillkey": "purple"
  },
  {
    "City": "Peoria",
    "Includes": 0,
    "latitude": 40.693137,
    "longitude": -89.589847,
    "State": "Illinois",
    "Rakings": 44,
    "Altered Radius": 5,
    "Fillkey": "purple"
  },
  {
    "City": "Sioux Falls",
    "Includes": 0,
    "latitude": 43.546358,
    "longitude": -96.69063,
    "State": "South Dakota",
    "Rakings": 45,
    "Altered Radius": 5,
    "Fillkey": "purple"
  },
  {
    "City": "Quad Cities",
    "Includes": "Includes Davenport, Bettendorf, Rock Island, East Moline and Moline",
    "latitude": 41.516667,
    "longitude": -90.533333,
    "State": "Iowa",
    "Rakings": 46,
    "Altered Radius": 5,
    "Fillkey": "purple"
  },
  {
    "City": "Bowling Green",
    "Includes": 0,
    "latitude": 37.017407,
    "longitude": -86.451752,
    "State": "Kentucky",
    "Rakings": 47,
    "Altered Radius": 5,
    "Fillkey": "purple"
  },
  {
    "City": "Cedar Rapids",
    "Includes": 0,
    "latitude": 41.976612,
    "longitude": -91.657578,
    "State": "Iowa",
    "Rakings": 48,
    "Altered Radius": 5,
    "Fillkey": "purple"
  },
  {
    "City": "Flint",
    "Includes": 0,
    "latitude": 42.965926,
    "longitude": -83.780835,
    "State": "Michigan",
    "Rakings": 49,
    "Altered Radius": 5,
    "Fillkey": "purple"
  },
  {
    "City": "Rockford",
    "Includes": 0,
    "latitude": 42.33342,
    "longitude": -89.157198,
    "State": "Illinois",
    "Rakings": 50,
    "Altered Radius": 5,
    "Fillkey": "purple"
  },
  {
    "City": "Springfield",
    "Includes": 0,
    "latitude": 37.25807,
    "longitude": -93.343673,
    "State": "Illinois",
    "Rakings": 51,
    "Altered Radius": 5,
    "Fillkey": "purple"
  },
  {
    "City": "Topeka",
    "Includes": 0,
    "latitude": 38.988075,
    "longitude": -95.780662,
    "State": "Kansas",
    "Rakings": 52,
    "Altered Radius": 5,
    "Fillkey": "purple"
  },
  {
    "City": "Wheeling",
    "Includes": 0,
    "latitude": 40.102703,
    "longitude": -80.647599,
    "State": "West Virginia",
    "Rakings": 53,
    "Altered Radius": 5,
    "Fillkey": "purple"
  }
]